項次編號,評分等級,認定項目,行政區編號,地址,場所名稱,latitude,longitude,行政區
1,2,9,63000050,忠孝東路1段12號,喜來登大飯店,25.01973673645995,121.3849317538406,中正區
2,2,5,63000050,中山南路7號,臺大醫院,25.040570277812094,121.51811937537666,中正區
3,2,5,63000050,中山南路8號,臺大醫院兒童醫療大樓,25.044327077809783,121.51600807537694,中正區
4,2,5,63000050,北平東路28號2樓,創世清寒植物人安養院,25.045830877808697,121.52281787537677,中正區
5,2,4,63000050,忠孝東路1段85號,凱撒世貿大樓,25.044202377809704,121.52419497537676,中正區
6,2,4,63000050,忠孝東路1段83號,凱撒花園大樓,25.04423457780981,121.52399247537676,中正區
7,2,4,63000050,杭州南路1段15號,醒吾大樓,25.04264077781075,121.52411767537669,中正區
8,2,4,63000050,忠孝東路2段88號,海華金融大廈,25.042963477810627,121.52685797537683,中正區
9,2,4,63000050,仁愛路2段61、63號,鴻禧大樓,25.038660277813367,121.52779097537665,中正區
10,2,1,63000050,齊東街53巷2號至10號,木造建築物,25.04149867781155,121.52597227537673,中正區
11,2,9,63000050,新生南路1段6號,來來忠孝大樓,25.04391797780995,121.53004407537692,中正區
12,2,9,63000050,中山南路21號,國立中正文化中心,25.034652177815897,121.51925157537637,中正區
13,2,9,63000050,信義路2段81號,東門市場,25.034583177816113,121.52401937537655,中正區
14,2,9,63000050,臨沂街44巷1號木造建築物,木造建築物,25.03724987781431,121.52634817537664,中正區
15,2,9,63000050,臨沂街63巷18號對面,木造建築物,25.03448642781601,121.52601092537638,中正區
16,2,9,63000050,臨沂街65巷11號,木造建築物,25.03577557781526,121.52717727537645,中正區
17,2,7,63000050,忠孝東路1段12號,喜來登大飯店附設立體停車塔,25.01973673645995,121.3849317538406,中正區
18,2,7,63000050,忠孝東路2段80號,天裔大廈停車塔,25.043103477810515,121.5264507753769,中正區
19,2,4,63000050,忠孝東路2段123號,兆豐金融大樓,25.042883977810718,121.52992627537678,中正區
20,2,4,63000050,濟南路1段2之2號,中央聯合大樓北棟,25.042681377810815,121.51753667537687,中正區
21,2,4,63000050,徐州路5號,中央聯合大樓南棟,25.042112877811164,121.51696837537676,中正區
22,2,9,63000050,仁愛路1段1號,臺大基礎醫學大樓,25.039539777812756,121.51709267537669,中正區
23,2,9,63000050,杭州南路1段28-1號,中華電信數據通信大樓,25.03607307781503,121.52151407537647,中正區
24,1,4,63000050,中華路1段39號,臺糖騰雲大樓,25.01973673645995,121.3849317538406,松山區
25,2,1,63000050,武昌街1段16及22巷一帶,城中市場,25.01973673645995,121.3849317538406,松山區
26,1,4,63000050,忠孝西路1段38號,凱撒飯店,25.045456394940057,121.50954545386185,中正區
27,2,4,63000050,忠孝西路1段66號,新光人壽摩天大樓 ,25.046657477808164,121.51275167537688,中正區
28,2,4,63000050,忠孝西路1段50號,亞洲廣場,25.045771577808726,121.5132458753768,中山區
29,1,6,63000050,公園路52號,臺北大眾捷運股份有限公司淡水信義線臺大醫院站,25.047060279676124,121.41818538057944,新莊區
30,2,6,63000050,忠孝西路1段50-1號B1,臺北市站前地下街,25.046339327808393,121.51293967537683,中正區
31,2,6,63000050,寶慶路32-1號,臺北大眾捷運股份有限公司板南線西門站,25.041477577811598,121.50639597537678,中正區
32,2,5,63000050,新生南路1段124-3號1-4樓,大園老人養護所,25.03753317781417,121.52985397537661,中正區
33,2,5,63000050,新生南路1段124-3號5樓,仁泰老人養護所,25.03753317781417,121.52985397537661,中正區
34,2,9,63000050,晉江街一帶,磚木造平房,25.027702511281376,121.51868824281217,中正區
35,2,9,63000050,永春街一帶,磚木造平房,25.019668601165,121.30252200441312,信義區
36,2,9,63000050,詔安街一帶,磚木造平房,25.025361077822,121.50966887537614,中正區
37,2,4,63000050,仁愛路1段50號,交通部交通通訊傳播大樓,25.037679377813976,121.52204077537654,中正區
38,2,9,63000050,忠孝西路1段7號,中央住商辦公大樓,25.04638207780828,121.516740175377,中正區
39,1,9,63000050,重慶南路1段99號,世界大樓,25.043088477810493,121.51076387537675,中正區
40,1,9,63000050,許昌街17號,壽德大樓,25.04583647780875,121.51425567537693,中正區
41,2,9,63000050,林森南路(仁愛路1段至羅斯福路1段),林森南路車行地下道,25.03848497781345,121.5188665753766,中正區
42,1,9,63000050,惠安街17號地下一樓,集合住宅,25.029624977819296,121.5041566753765,中正區
43,2,9,63000050,羅斯福路四段136巷3號,東南亞秀泰影城,25.01278307783003,121.53268587537585,中正區
44,2,9,63000050,中華路二段315巷5弄,南機場夜市,25.02865052781986,121.5034769253764,中正區
45,2,5,63000080,羅斯福路6段280號,景美醫院,24.99119492784424,121.5372819253751,文山區
46,1,5,63000080,溪口街1巷5號3、4樓,美安老人長期照顧中心,24.994048977842247,121.53729207537518,文山區
47,2,5,63000080,辛亥路5段120-1號1-4樓,心慈老人養護所,24.997483977839952,121.54956387537521,文山區
48,2,9,63000080,辛亥路5段至6段,懷恩隧道,25.00401398146254,121.52588083048958,大安區
49,2,9,63000080,萬芳交流道至信義路5段150巷,文山隧道,25.013485181069214,121.54874838050935,信義區
50,2,4,63000080,木柵路3段177號B5至24樓,遠雄日光,24.989845232051227,121.54630553046005,文山區
51,1,5,63000080,車前路12號3至4樓,三園老人長期照顧中心,24.991508777843848,121.53836027537513,文山區
52,2,5,63000080,木柵路3段85巷8弄4-1、4-2號1樓及2、2-1、2-2、4、4-1、4-2號2樓,臺北市私立吉祥老人長期照顧中心(養護型),24.98820484553424,121.55778980383212,文山區
53,2,9,63000080,興隆路3段185及207巷,來來社區,24.996621231769655,121.53467473047421,文山區
54,2,5,63000080,木柵路2段163、165號2-4樓,慧誠老人養護所,25.019668601165,121.30252200441312,文山區
55,1,9,63000080,景興路,仙跡岩集合住宅,24.993236477842853,121.54184187537521,文山區
56,2,9,63000080,景興路153巷,景興路集合住宅,24.99380017784244,121.54270117537511,文山區
57,2,9,63000080,羅斯福路6段403號B1,總動員KTV(好樂迪),24.99187797784374,121.53815037537515,文山區
58,1,5,63000080,溪口街1巷5號,景安老人養護所,24.994048977842247,121.53729207537518,文山區
59,2,5,63000080,興隆路2段95巷8號3至5樓,臺北市私立文山老人養護所,25.00005807783838,121.54431817537542,文山區
60,2,9,63000080,秀明路2段115巷1至13號,翡翠城堡社區大廈,24.99130687784411,121.57442307537502,文山區
61,2,5,63000080,萬和街6號8號5樓,創世基金會植物人安養中心文山分會,25.001901277837263,121.56471847537547,文山區
62,2,5,63000080,興隆路4段109巷30號4樓,臺北市政府社會局老人自費安養中心,24.986303877847245,121.55990987537497,文山區
63,2,5,63000080,政大二街129號,兆如老人養護中心,24.98923137784536,121.58141277537501,文山區
64,2,2,63000080,試院路144巷及154巷一帶,集合住宅,24.991493431982736,121.52912053046347,文山區
65,2,4,63000080,辛亥路6段21巷2至40號,發現之旅社區大廈,24.991325877844027,121.55005147537516,文山區
66,2,5,63000080,景興路222號3樓,景興老人長期照顧中心,24.99115807784419,121.54082717537511,文山區
67,2,9,63000080,羅斯福路5段172-1號B1,易儲居企業有限公司,25.004286577835668,121.53572267537562,文山區
68,2,9,63000080,羅斯福路4段200號2樓,獅子王企業股份有限公司,25.01079167783139,121.53433437537572,文山區
69,2,9,63000070,成都路81號3樓,聚歡暢文化有限公司,25.043125077810533,121.50270857537684,萬華區
70,2,9,63000070,漢口街2段54號,六福大樓,25.04576877780877,121.50347817537684,萬華區
71,2,5,63000070,廣州街243號,仁濟醫院,25.036918477814435,121.49544507537658,萬華區
72,1,6,63000070,和平西路3段與西園路1段間,捷運龍山寺站暨地下商場,25.03697151125754,121.49510994281347,萬華區
73,2,5,63000070,峨眉街124-1號,中山老人安養中心,25.044575877809557,121.49945767537693,萬華區
74,1,9,63000070,西昌街（桂林街以南、廣州街以北）,西昌夜市,25.036793361257974,121.4944159928131,萬華區
75,1,9,63000070,廣州街（西園路1段以西、環河南路以東）,艋舺夜市及廣州夜市,25.034382861264433,121.49465194281291,萬華區
76,1,5,63000070,柳州街41號4樓,育仁啟能中心,25.03845637781347,121.50284627537668,萬華區
77,1,9,63000070,西寧南路4號,西寧行政大樓及西寧市場,25.047726977807482,121.504601275377,萬華區
78,1,8,63000070,西寧南路70號,萬年商業大樓,25.04519497780913,121.50393607537694,萬華區
79,1,8,63000070,漢中街52號,萬國百貨,25.04389727780998,121.50453777537679,萬華區
80,1,8,63000070,峨嵋街52號,誠品百貨-西門店,25.043653377810106,121.5027531753768,萬華區
81,1,8,63000070,漢中街116號,H&M成衣公司,25.04296277781056,121.50473102537686,萬華區
82,2,9,63000070,西園路2段52巷14弄以西與16弄以東所圍街廓及西園路2段52巷17號以東、西園路2段52巷14弄2號以西、西園路2段50巷4弄以南、西園路2段52巷以北所圍街廓,傳統市場,25.03003227138847,121.43408220179738,萬華區
83,2,9,63000070,青年路106號,南機場三號基地國宅,25.0228970778236,121.49997587537612,萬華區
84,1,9,63000070,萬華區成都路110號,成都大樓,25.04361887781016,121.49922967537677,萬華區
85,1,8,63000070,武昌街2段77號,誠品百貨-武昌店,25.045164877809196,121.50315167537676,萬華區
86,1,4,63000070,西寧南路127號,阿曼TIT,25.044382177809627,121.50397247537683,萬華區
87,1,9,63000070,西昌街188、190號B1樓,地下層蝸居,25.037746277813913,121.49791417537662,萬華區
88,2,9,63000070,中華路二段336號,忠恕社區連棟式集合住宅,25.029530777819247,121.50172917537644,萬華區
89,2,9,63000070,萬華區漢中街42號6樓,金元寶餐廳(歌廳),25.044234277809693,121.50469597537675,萬華區
90,2,9,63000070,萬華區漢口街2段54號3樓,相思園餐坊(卡拉ok),25.045693177808865,121.50313157537686,萬華區
91,2,9,63000070,萬華區漢中街42號7樓,星光百分百餐廳(歌廳 ),25.044227577809714,121.50470347537672,萬華區
92,2,9,63000070,萬華區峨眉街5號2樓,新櫻花音樂茶坊,25.043434577810228,121.50546137537687,萬華區
93,2,9,63000070,萬華區漢口街2段54號2樓之13,皇鳳餐廳(歌廳),25.04576877780877,121.50347817537684,萬華區
94,2,9,63000070,萬華區漢口街2段54號3F樓,舞帝有限公司,25.04576877780877,121.50347817537684,萬華區
95,2,9,63000070,萬華區武昌街2段89號5樓,映捌玖數位影城有限公司,25.04547717780899,121.50133747537681,萬華區
96,2,9,63000070,萬華區中華路1段144號9樓,新世界音樂城(歌廳),25.04316097781042,121.50550057537673,萬華區
97,2,9,63000070,萬華區西寧南路70號9樓,萬歲企業有限公司(MTV),25.043507977810172,121.50331107537674,萬華區
98,2,9,63000070,萬華區漢口街2段54號2樓,亞洲舞廳,25.045673277808785,121.5032175753769,萬華區
99,2,9,63000070,西昌街201之2號B1-5樓,住宅(蝸居),25.037709577814024,121.49802082537664,萬華區
100,2,9,63000070,萬華區漢中街116號7樓,中影股份有限公司真善美分公司,25.042690577810745,121.50476217537675,萬華區
101,2,9,63000070,萬華區成都路13號8樓,僖友國際股份有限公司(舞廳),25.042891577810536,121.50475357537674,萬華區
102,2,9,63000070,萬華區西寧南路36號4樓,新光三越百貨股份有限公司獅子林分公司(新光影城),25.045216877809075,121.50384907537689,萬華區
103,2,9,63000070,萬華區武昌街2段89號1至4樓,豪華大戲院股份有限公司,25.04555057780886,121.50139667537692,萬華區
104,2,9,63000070,漢中街52號8至11樓,絕色影城股份有限公司(台北西門威秀影城),25.04389727780998,121.50453777537679,萬華區
105,2,9,63000070,萬華區成都路88號1至7樓,國賓企業股份有限公司(電影院),25.042961877810605,121.50199437537677,萬華區
106,2,9,63000070,萬華區武昌街2段85號1樓,樂聲大戲院股份有限公司,25.045372977808956,121.50225737537691,萬華區
107,2,8,63000070,萬華區西寧南路36號1F-3F樓,獅子林商場,25.0450189778092,121.50351307537674,萬華區
108,2,9,63000070,和平西路三段187號2樓,金巴黎風味軒餐廳,25.03546777781544,121.4952270753765,萬華區
109,2,9,63000070,漢口街二段54號3樓,夜上海有限公司,25.045693177808865,121.50313157537686,萬華區
110,2,9,63000070,漢口街二段55號B1樓,好聚點茶坊,25.045937577808658,121.50355067537694,萬華區
111,2,9,63000070,漢口街二段37號1樓,東方足體養生館有限公司,25.045670677808804,121.50470607537692,萬華區
112,2,9,63000070,東園街135號,東園市,25.02489257782232,121.49450277537632,萬華區
113,2,2,63000030,和平東路3段606巷及632巷底,違章建築住宅,25.01973673645995,121.3849317538406,信義區
114,2,4,63000030,忠孝東路3段265號,朕廈社區,25.041890077811228,121.53979827537661,大安區
115,2,4,63000030,敦化南路2段201至209號,遠企大樓場所(併鼎鼎大飯店),25.02656847782129,121.54669087537634,大安區
116,1,5,63000030,仁愛路4段112巷11號,中山醫院,25.03651497781475,121.54735397537657,大安區
117,2,9,63000030,和平東路3段636巷167號,臺和實業股份有限公司,25.008190777833114,121.5615666753756,大安區
118,1,5,63000030,仁愛路4段266巷6號,國泰醫院,25.03718177781434,121.55016897537655,大安區
119,2,1,63000030,基隆路3段155巷,空軍眷村,25.01333017782983,121.54192587537595,大安區
120,1,5,63000030,仁愛路4段10號,仁愛醫院,25.037279977814237,121.54262432537654,大安區
121,1,5,63000030,忠孝東路4段77號,中心診所,25.041881077811244,121.54331802537675,大安區
122,1,5,63000030,仁愛路4段61號,宏恩醫院,25.03832607781354,121.54427827537664,大安區
123,1,6,63000030,忠孝東路、復興南路口,捷運板南線忠孝復興站,25.025040827822295,121.53967537537628,大安區
124,1,6,63000030,忠孝東路、敦化南路地下街,捷運板南線地下街,25.041327077811566,121.54558617537677,中山區
125,1,9,63000030,信義路4段60號,信維市場,25.032852177817098,121.54321177537648,大安區
126,1,9,63000030,信義路4段2號,捷運木柵線及信義線大安站,25.03383887781651,121.5390193753765,大安區
127,2,9,63000030,和平東路3段底,莊敬隧道,25.021078245192886,121.54354605384918,信義區
128,2,9,63000030,和平東路1段177號,和平大廈,25.02657727782131,121.52980897537633,大安區
129,2,1,63000030,羅斯福路4段119巷60弄,老舊建築,25.00942777783234,121.5360159753756,大安區
130,2,7,63000030,通化街39巷49弄12號,珍珠細道立體停車塔,25.03107957781835,121.55292347537649,大安區
131,2,7,63000030,忠孝東路4段205巷38號,台灣聯通停車場-建安場,25.0441486778098,121.54916977537681,大安區
132,2,7,63000030,光復南路676巷16號,莎軒住商大樓立體停車塔,25.030709677818518,121.55379397537646,大安區
133,1,9,63000030,忠孝東路4段201號,統領商業大樓,25.041651477811346,121.54922567537673,大安區
134,1,5,63000030,忠孝東路4段116巷1-5號,秀傳醫院,25.01973673645995,121.3849317538406,中正區
135,2,1,63000030,基隆路3段155巷107弄,台大教職員宿舍,25.01306147783001,121.54273722537586,大安區
136,1,6,63000030,信義路2段166號,捷運東門站,25.033567877816672,121.52690257537662,大安區
137,2,7,63000030,信義路4段265巷17-1號,昌軒小君悅立體停車塔,25.03422427781618,121.55204657537651,大安區
138,1,5,63000030,基隆路3段155巷57號,台大癌醫中心,25.01399987782936,121.54014187537584,大安區
139,2,7,63000020,光復南路567號,愛馬屋停車塔,25.03073047781845,121.5550115753764,信義區
140,2,4,63000020,松仁路32、36、38號,新光金融大樓,25.03875577781325,121.56559547537655,信義區
141,1,4,63000020,忠孝東路5段6、8號,市政府轉運站暨統一時代百貨公司,25.041323077811636,121.56255247537676,信義區
142,1,9,63000020,松仁路38號,寒舍艾美酒店,25.038184877813602,121.56550287537668,信義區
143,2,9,63000020,永吉路443、491巷一帶,五分埔成衣商店街,25.046541477808233,121.57659172537691,信義區
144,2,2,63000020,褔德街221巷,集合住宅,25.02180433987992,121.43829561106773,信義區
145,2,9,63000020,紫雲街22-26號,挹翠山莊RC住宅,25.01820317782673,121.57155997537605,信義區
146,2,9,63000020,崇德街200號以上,平房住宅,25.01973673645995,121.3849317538406,信義區
147,2,4,63000020,信義路5段150巷8號,雲鼎大樓,25.028731977819753,121.56815057537627,信義區
148,2,4,63000020,忠孝東路5段508至510號,家美國際金融大樓,25.036851480099504,121.54355693055815,信義區
149,2,4,63000020,基隆路1段200號,遠雄大樓,25.04021997781235,121.56100697537664,信義區
150,2,4,63000020,基隆路2段189號,文普世紀天廈,25.02486177782233,121.55083497537606,信義區
151,2,4,63000020,基隆路1段206號,點石大樓及瀚寓酒店,25.039811477812627,121.5607363753767,信義區
152,2,4,63000020,基隆路1段333號,國際貿易大樓,25.03425387781622,121.55853667537647,信義區
153,2,4,63000020,松德路151號,福爾摩沙大廈,25.036632577814697,121.57237197537661,信義區
154,1,4,63000020,松壽路2號,君悅大飯店,25.035170777815665,121.56029197537636,信義區
155,2,4,63000020,松德路94號,國際名紳大廈,25.03793547781381,121.57269527537656,信義區
156,2,4,63000020,信義路5段150巷2號,環球世貿大樓,25.028946377819686,121.56947767537635,信義區
157,2,4,63000020,松德路93至127號,凱夏社區大樓,25.03797057781381,121.57346827537667,信義區
158,2,4,63000020,松德路171號,僑泰首席大樓,25.035781577815268,121.57226777537664,信義區
159,1,4,63000020,信義路5段7號、市府路45號,臺北101大樓,25.033904527816336,121.56191977537644,信義區
160,2,4,63000020,信義路4段460至466號,信基大樓,25.03273427781717,121.55621627537649,信義區
161,2,4,63000020,信義路4段456至458號,世紀金融廣場,25.032826977817123,121.55576227537645,信義區
162,2,4,63000020,松仁路3號,中油大樓,25.039767777812628,121.5663877753767,信義區
163,2,4,63000020,松仁路7號,國泰金融大樓,25.03813987781372,121.56610177537655,信義區
164,1,5,63000020,吳興街252號,臺北醫學大學附設醫院,25.026955477820973,121.56043707537631,信義區
165,2,5,63000020,信義路6段15巷16號1樓,臺北市私立康庭老人養護所,25.035263277815503,121.57272397537653,信義區
166,2,5,63000020,中坡北路21號1-2樓、23號2樓,臺北市私立倚青苑老人養護所,25.04490487780928,121.57827107537683,信義區
167,2,5,63000020,松隆路36號6樓,恆愛發展中心,25.0433498778103,121.56488917537673,信義區
168,1,9,63000020,松山路11號,松山火車站暨潤泰百益股份有限公司,25.049267977806473,121.575709975377,松山區
169,1,5,63000020,松德路309號,臺北市立療養院,25.0292131778196,121.57194437537645,信義區
170,2,9,63000020,菸廠路88號,松山菸廠-誠品生活股份有限公司松山分公司,25.044560777809593,121.5587757753769,松山區
171,2,6,63000020,忠孝東路4段400號,捷運板南線國父紀念館站,25.041357277811578,121.55500907537672,信義區
172,2,6,63000020,忠孝東路5段、虎林街口(忠孝東路5段455號),捷運板南線永春站,25.048455877807015,121.57300347537709,信義區
173,1,6,63000020,忠孝東路5段、基隆路口,捷運板南線市政府站,25.048412577807095,121.56639727537697,信義區
174,1,8,63000020,忠孝東路5段297號,"七品餐坊七品餐坊
(含KTV SING!GO)",25.041145277811673,121.57181777537674,信義區
175,2,8,63000020,松壽路11號,新光三越百貨公司A11館,25.03605227781501,121.56451447537657,信義區
176,2,8,63000020,松高路12號,新光三越百貨公司A8館,25.03822407781365,121.5642159753766,信義區
177,1,8,63000020,松壽路12號,"ATT 4 FUN
(含KTV SING!GO)",25.035313577815582,121.56349097537658,信義區
178,1,9,63000020,信義路5段1號,臺北國際會議中心,25.03358207781667,121.55824067537652,信義區
179,1,9,63000020,信義路5段5號,世貿展覽中心,25.033259077816833,121.55974907537639,信義區
180,2,9,63000020,吳興街600巷,吳興街狹小巷道,25.02081062782493,121.56704482537609,信義區
181,2,9,63000020,信義路5段,信義快速道路(象山隧道),25.032958177817097,121.56454567537652,信義區
182,2,8,63000020,松高路19號,新光三越百貨公司A4館,25.039732577812682,121.56391017537669,信義區
183,2,4,63000020,松高路9、11號,統一國際大樓,25.039749677812726,121.56234867537665,信義區
184,2,9,63000020,信義路4段375號,玫瑰欣欣大樓,25.033296977816768,121.55522147537663,信義區
185,2,9,63000020,基隆路2段22號,惠安大樓,25.03198667781772,121.55612687537645,信義區
186,2,9,63000020,基隆路1段432號,雙雄世貿大樓,25.033721277816596,121.55703647537649,信義區
187,2,9,63000020,基隆路2段109號B1,好樂迪KTV,25.028955677819695,121.55482677537643,信義區
188,2,4,63000020,松智路1號,華新麗華大樓,25.03875877781324,121.56368457537667,信義區
189,2,8,63000020,松仁路28號,震怡股份有限公司,25.03958237781283,121.56522747537684,信義區
190,1,8,63000020,松壽路22號,NEO19,25.035364977815554,121.56533877537655,信義區
191,2,4,63000020,信義路5段95號,冠德遠見大樓,25.03318397781693,121.56945057537642,信義區
192,2,4,63000020,信義路5段91巷2號,寶徠花園廣場社區,25.03334437781678,121.56853917537654,信義區
193,2,8,63000020,松壽路9號,新光三越A9館,25.036310377814846,121.56428387537662,信義區
194,1,4,63000020,忠孝東路5段10號,時代飯店,25.041444977811555,121.56271707537668,信義區
195,2,9,63000020,信義路5段(松仁路至松德路段),信義車行地下道,25.032958177817097,121.56454567537652,信義區
196,1,4,63000020,松高路16、18號,富邦信義商旅大樓(含寒舍國際酒店股份有限公司及微風置地股份有限公司松高分公司),25.038155377813666,121.56473897537661,信義區
197,2,9,63000020,逸仙路26巷1號B1,收多易股份有限公司,25.03956287781277,121.55933647537665,信義區
198,2,4,63000020,松勇路69巷2號,臺北信義社區,25.033336477816874,121.56794657537651,信義區
199,2,7,63000020,富陽街57號,名人居-停車塔,25.022149277824074,121.5539536753761,信義區
200,2,4,63000020,松仁路123號,華南銀行總行大樓,25.034519177816072,121.56620597537648,信義區
201,2,4,63000020,松高路1號,遠雄金融中心,25.039624977812725,121.5617328753765,信義區
202,2,7,63000020,忠孝東路5段15巷15號,筌壹企業股份有限公司停車場(停車塔),25.04190087989008,121.52864993056872,信義區
203,2,7,63000020,光復南路439號,仁愛PAGE 1大樓(停車塔),25.035665377815317,121.55515257537658,信義區
204,2,7,63000020,信義路4段450巷1號,愛馬屋101場(停車塔),25.03243797781736,121.55603407537646,信義區
205,2,4,63000020,松勇路53巷21號,文心信義大樓,25.034457027816156,121.5681867253764,信義區
206,2,4,63000020,松智路17號,南山人壽保險股份有限公司(南山廣場),25.03450187781606,121.56362417537645,信義區
207,2,4,63000020,忠孝東路5段68號,國泰置地廣場暨信義微風百貨,25.041060329924925,121.53058723056697,信義區
208,2,8,63000020,松仁路58號,遠東百貨A13,25.036755577814624,121.56537557537656,信義區
209,2,4,63000020,松高路77號,富邦信義大樓A棟,25.039333377812927,121.56776987537667,信義區
210,2,9,63000020,松壽路12號10樓,唯優餐飲有限公司,25.03538647781549,121.56340087537656,信義區
211,2,9,63000020,松壽路22號B1樓,樂三實業股份有限公司(UNDERLINK),25.03550307781545,121.56528507537658,信義區
212,1,9,63000020,忠孝東路4段515號,臺北文化體育園區,25.042254894973244,121.5420882038602,信義區
213,2,4,63000090,南港路3段47巷55號,潤泰玉成總部辦公大樓,25.05185627780487,121.58872137537718,南港區
214,2,9,63000090,中南街1號2樓,中南街1號2樓,25.0550799778026,121.61278807537715,南港區
215,1,6,63000090,忠孝東路7段380號,捷運板南線南港站,25.051856177804883,121.604002075377,南港區
216,1,5,63000090,同德路87號,忠孝醫院,25.04659967780816,121.58356727537691,南港區
217,2,9,63000090,南港路1段32號,捷運文湖線南港展覽館站,25.05493107780282,121.61430297537714,南港區
218,1,9,63000090,三重路19號,南港經貿園區,24.91074040820465,121.00651028990458,南港區
219,2,2,63000090,中南街134巷內,老舊社區,25.053468044450984,121.61396683868077,南港區
220,2,9,63000090,研究院路3段161巷3號,六韜瓦斯分裝場,25.030819477818337,121.61222787537628,南港區
221,1,9,63000090,經貿二路1號,台北世貿南港展覽館,25.05644517780173,121.61537637537711,南港區
222,2,9,63000090,研究院路1段99號,太陽大帝住商大廈,25.05226697780457,121.6138085753771,南港區
223,1,9,63000090,南港區研究院路2段128號內之(化學研究所) ,中央研究院,25.042441161243282,121.60910199281396,南港區
224,2,6,63000090,研究院路1段1號,捷運南港展覽館站,25.048839961226715,121.60792789281474,南港區
225,1,4,63000090,園區街3號,南港軟體工業園區第二期大樓,25.058486077800517,121.60930757537756,南港區
226,1,9,63000090,三重路66號,南港軟體工業園區第三期大樓,24.91117290358673,121.00770664016443,南港區
227,1,9,63000090,南港路1段313、315號,南港火車站及高鐵站,25.052991177804106,121.60452147537706,南港區
228,1,9,63000090,忠孝東路7段359~369號,南港車站辦公大樓、潤泰南港車站商場及六福萬怡酒店,25.05251237780439,121.60348087537709,南港區
229,1,9,63000090,經貿二路2號,南港展覽館二館,25.056317477801855,121.61325547537712,南港區
230,2,7,63000090,研究院路1段101巷10號,大哲悅社區停車塔,25.051775377804866,121.61404297537709,南港區
231,2,4,63000100,內湖路2段103巷16號,勤美璞真碧湖畔,25.0802003277865,121.579677725378,內湖區
232,2,4,63000100,成功路4段178至180號,雙湖匯大樓,25.083424677784407,121.5911531753782,內湖區
233,2,4,63000100,內湖路3段72巷61號,森之林大廈,25.08872717778094,121.58818117537821,內湖區
234,2,4,63000100,星雲街168巷29至43號,力霸國鼎大廈,25.079972277786606,121.59448567537801,內湖區
235,2,4,63000100,星雲街150巷26至32號,大成大賞公寓大廈,25.079508677786876,121.59363517537798,內湖區
236,2,4,63000100,成功路2段365號,現代米羅大廈,25.03439482066448,121.51718570183414,內湖區
237,2,4,63000100,瑞光路392號,光寶科技大樓,25.077895777787983,121.56854537537794,內湖區
238,2,5,63000100,成功路2段325號,三軍總醫院,25.033931568073292,121.29224301358975,內湖區
239,2,5,63000100,成功路3段88、90號2樓及76巷9號2樓,臺北市私立瑞安老人養護所,25.019753768301577,121.4261335445545,內湖區
240,2,5,63000100,成功路2段488號2.3樓及490號2樓,臺北市私立銀髮族老人養護所,25.073975244644597,121.57372425387672,內湖區
241,2,8,63000100,新湖三路23號,特力屋廣場,25.062152577798134,121.57166577537744,內湖區
242,2,8,63000100,舊宗路1段128號,宜家家居股份有限公司-內湖分公司,25.06095077779899,121.57546897537736,內湖區
243,2,8,63000100,舊宗路1段268號,好市多大賣場,25.063863277796955,121.5733051753774,內湖區
244,2,8,63000100,舊宗路1段188號,大潤發大賣場二館,25.06230687779806,121.5731338753775,內湖區
245,2,8,63000100,堤頂大道1段331號,燦坤3C賣場,25.062783377797686,121.57037507537744,內湖區
246,2,9,63000100,民權東路6段180巷42弄6號,婦幼家園,25.06734617779475,121.58997987537751,內湖區
247,2,4,63000100,民權東路6段296巷76、82至90號,大湖亭閣,25.069234277793544,121.60796517537757,內湖區
248,2,5,63000100,民權東路6段280巷19弄1至7號1樓,臺北市私立童音老人養護所,25.071745377791945,121.60257627537781,內湖區
249,2,5,63000100,陽光街72-1號1樓,私立文德老人養護所,25.076207977789075,121.5835870753778,內湖區
250,2,5,63000100,成功路5段420巷26-28號,康寧醫院,25.07586127778929,121.60635582537789,內湖區
251,2,8,63000100,民善街88號,家樂福大賣場,25.059146377800122,121.57177797537729,內湖區
252,2,8,63000100,民善街205號,禮客時尚館,25.064102077796903,121.57219107537755,內湖區
253,2,4,63000100,堤頂大道路2段235-241號,精英大樓,25.078132677787757,121.56452937537789,內湖區
254,2,4,63000100,金湖路79號,輝煌世紀,23.97552730403321,112.71561262571981,內湖區
255,2,9,63000100,成功路4段32號至58號、成功路4段30巷7號至21號及47號至53號,宏泰巨星,25.080986328270463,121.5646394806504,內湖區
256,2,5,63000100,內湖路2段360號,中國醫藥大學附設臺北分院,25.08214597778523,121.5881578753781,內湖區
257,2,5,63000100,內湖路2段253巷1弄3號B1至2樓,臺北市私立祥家老人養護所,25.077258678424812,121.56104978064262,內湖區
258,2,9,63000100,內湖路1段256號,捷運內湖線西湖站,25.083494677784376,121.56910677537813,內湖區
259,2,9,63000100,內湖路1段663號,捷運內湖線港漧站,25.07920832834407,121.56039213064668,內湖區
260,2,9,63000100,文德路214號,捷運內湖線文德站,25.023510177823272,121.45847097537623,板橋區
261,2,9,63000100,成功路4段143號,捷運內湖線內湖站,25.082854577784786,121.59112347537805,內湖區
262,2,9,63000100,成功路5段11號,捷運內湖線大湖公園站,25.083595377784253,121.59971847537807,內湖區
263,2,9,63000100,康寧路3段16號,捷運內湖線葫洲站,25.07252677779142,121.60476577537776,內湖區
264,2,9,63000100,康寧路3段235號,捷運內湖線東湖站,25.067125877795,121.60914317537755,內湖區
265,2,5,63000100,金龍路136-1號B2-6樓,金龍發展中心,25.085764777782813,121.58748407537817,內湖區
266,2,9,63000100,星雲街16巷63號至69號,馬蒂斯小丘社區,25.077186477788416,121.58925307537797,內湖區
267,2,9,63000100,成功路2段456巷1號,大台北瓦斯-成功基地,25.073682877790734,121.5851829753778,內湖區
268,2,9,63000100,大湖街121號,東宜瓦斯行,25.092281177778613,121.6011922753782,內湖區
269,2,9,63000100,大湖街125號,欣湖瓦斯行,25.093558677777736,121.60210027537848,內湖區
270,2,4,63000100,環山路1段26號,上林苑社區,25.084756877783573,121.56283057537819,內湖區
271,2,4,63000100,成功路4段91號,基泰御峰,25.08246147778499,121.59077697537806,內湖區
272,2,9,63000100,舊宗路二段105號3樓,摩爾空間個人倉庫（內科店）,25.068656977794056,121.57247907537774,內湖區
273,1,9,63000100,民權東路6段296巷121號B2,摩爾空間個人倉庫（東湖店）,25.06945377779342,121.6068677753776,內湖區
274,2,9,63000100,成功路5段2號B1,台灣便利倉（內湖倉）,25.08477797778355,121.5982700753782,內湖區
275,2,4,63000100,內湖路1段411巷66號,長虹天璽大廈,25.083952277784032,121.56839967537812,內湖區
276,2,4,63000100,金湖路125號,文心AIT,25.080364377786378,121.59555957537798,內湖區
277,2,9,63000100,內湖路3段60巷27號,安縵莊園,25.08832987778122,121.59106407537828,內湖區
278,2,9,63000100,成功路4段68號B1樓,好樂迪股份有限公司內湖分公司,25.082660077784926,121.59019037537807,內湖區
279,2,9,63000100,成功路4段68號B2樓,好手撞球運動館,25.08283267778474,121.59041927537812,內湖區
280,2,8,63000100,成功路4段188至192號 ,潤泰京采大樓,25.084631677783584,121.59126897537818,內湖區
281,2,9,63000100,康寧路3段72號3、4樓,哈拉影城,25.069691577793293,121.60888737537773,內湖區
282,2,4,63000100,文德路210巷30弄81號至91號,新光碧湖天大廈,25.052266679460274,121.54852003059037,內湖區
283,2,4,63000100,內湖區潭美街533~539號,長虹雲端科技大樓,25.061113877798814,121.59684017537728,內湖區
284,2,9,63000100,內湖區成功路4段358號B1,台灣便利倉內湖二店,25.084845977783505,121.59765017537822,內湖區
285,2,4,63000100,新明路428巷1號,翔譽愛力大樓,25.054559977803,121.57693507537718,內湖區
286,2,5,63000100,行善路250號,臺北市立行愛住宿長照機構,25.0604535777993,121.57857527537737,內湖區
287,2,4,63000010,敦化北路6號,華固名鑄,25.05030687780572,121.54597497537708,松山區
288,2,4,63000010,市民大道4段39-2號,潤泰敦峰,25.045968477808554,121.54313607537681,松山區
289,2,2,63000010,濱江街457 巷至6號水門,濱江街一帶(6號水門以西至濱江街457巷),25.068780494698387,121.54946690387402,松山區
290,2,3,63000010,民生東路3段156號,宏泰世紀大樓地下室,25.057313077801233,121.5450704753773,松山區
291,2,3,63000010,南京東路3段337號,微風百貨南京店,25.05219337780468,121.54567037537706,松山區
292,2,4,63000010,民生東路5段198~206號,建成花園大廈,25.05862777780043,121.56185267537724,松山區
293,2,5,63000010,南京東路5段162號3樓,私立佳安康復中心,25.019668601165,121.30252200441312,內湖區
294,1,5,63000010,健康路131號,國軍松山醫院,25.05440257780318,121.55508297537716,松山區
295,1,5,63000010,敦化北路199號,長庚醫院,25.055651177802336,121.54673047537722,松山區
296,1,5,63000010,八德路2段242號,臺安醫院,25.046589977808285,121.53793007537703,中山區
297,1,5,63000010,八德路4段203~205號,臺北市私立康壯老人長期照顧中心(養護型),25.04891877780675,121.56121027537701,松山區
298,1,5,63000010,光復北路66號,博仁醫院,25.049970277805993,121.55498537537696,松山區
299,1,5,63000010,南京東路5段356號2樓,臺北市私立仁仁老人長期照顧中心(養護型),25.050989077805397,121.56712807537694,松山區
300,1,5,63000010,敦化南路1段7號4樓之1,臺北市私立臺大老人養護所,25.046864577808012,121.54674877537683,松山區
301,2,8,63000010,復興南路1段39號,微風廣場購物中心,25.045915877808635,121.54264427537687,松山區
302,2,8,63000010,三民路160號,家樂福(三民店),25.0748509046888,121.4346922628868,松山區
303,1,9,63000010,饒河街一帶,饒河街觀光夜市,25.05061391122236,121.5695782428151,松山區
304,2,9,63000010,南京東路3段337號14、15樓,亞太三溫暖,25.05219337780468,121.54567037537706,松山區
305,1,9,63000010,南京東路3段253號,捷運南京復興站,25.051548577805,121.53900857537714,松山區
306,1,9,63000010,南京東路4段2號,小巨蛋,25.050792577805574,121.54744857537703,松山區
307,1,6,63000010,敦化北路338號,捷運內湖線松山機場站,25.063011277797536,121.54911717537743,松山區
308,2,9,63000010,復興北路15-2號1樓,星聚點股份有限公司復興分公司,25.048625077806857,121.54169537537703,松山區
309,1,6,63000010,南京東路四段10-1號,捷運松山線臺北小巨蛋站,25.05134707780511,121.54829187537715,松山區
310,1,6,63000010,南京東路5段237號,捷運松山線南京三民站,25.051436627805163,121.56134717537714,松山區
311,1,6,63000010,八德路4段700號,捷運松山線松山站,25.049838077806164,121.57470227537706,松山區
312,2,9,63000010,敦化北路158號,台北文華東方酒店,25.05559397780249,121.54577187537724,松山區
313,2,4,63000010,敦化南路1段77號,敦南樞苑,25.045086277809258,121.54686887537684,松山區
314,2,9,63000010,復興北路1號5樓,台灣便利倉（松山倉）,25.04797667780734,121.54189817537693,松山區
315,2,9,63000010,八德路四段520號2樓,大典藏家迷你倉（八德店）,25.049716477806186,121.56857947537708,松山區
316,2,9,63000010,長安東路二段219 號B1,摩爾空間個人倉庫（長安店）,25.048489677807,121.54230297537696,松山區
317,2,9,63000010,敦化北路340之9號,臺北松山機場航廈,25.06338167779749,121.5474126753776,松山區
318,2,5,63000010,敦化南路1段7號4樓,臺北私立群英老人長期照顧中心,25.046864577808012,121.54674877537683,松山區
319,2,5,63000010,健康路399號1、2樓,鵬程護理之家,25.05467207780294,121.56625387537713,松山區
320,2,4,63000010,長安東路2段225號,合作金庫商業銀行總行大樓,25.048797377806718,121.54289957537685,松山區
321,2,5,63000010,南京東路5段324-1號2、3、4樓,私立松欣康復之家,25.051565427805045,121.55721087537705,松山區
322,2,9,63000010,撫遠街395巷1號B1樓,弱勢族群居所,25.06528957779604,121.5632978753775,松山區
323,2,9,63000010,復興南路1段29號,好樂迪臺北中興店,25.04647897780824,121.54158007537687,松山區
324,2,9,63000010,民生東路5段190號3樓,新民生戲院,25.058648177800382,121.56168747537733,松山區
325,2,9,63000010,敦化北路100號　,茹曦酒店ILLUME TAIPEI,25.053226977803952,121.54598087537704,松山區
326,2,9,63000010,新中街9-1號1樓,東社市場,25.0575689778011,121.55794807537718,松山區
327,1,9,63000010,基隆路一段8號B1樓,金坊酒店,25.050674977805606,121.56726247537713,松山區
328,2,4,63000010,光復南路46巷36號,勤耕延吉社區,25.045602277808836,121.5519537753769,松山區
329,2,4,63000010,敦化南路一段3號,華固敦品大廈,25.04767697780748,121.54677607537698,松山區
330,2,9,63000040,中山區民生西路三段67號,國立臺北大學(太陽光電場所),25.035903520414145,121.46507380184683,中山區
331,2,9,63000040,中山區民權東路1段69號,中山國民小學(太陽光電場所),25.063640177797133,121.52438937537735,中山區
332,2,4,63000040,中山區八德路2段115號,華固樂慕,25.046293977808368,121.53459107537691,中山區
333,2,8,63000040,植福路200號,春大直,25.082923277784715,121.55770327537815,中山區
334,2,9,63000040,北安路至故宮路,自強隧道,25.08813524449803,121.53558110388407,士林區
335,2,4,63000040,南京東路2段86號,臺肥大樓,,,
336,2,4,63000040,中山北路2段39巷1號,晶華國際大酒店,25.053827177803566,121.52056537537725,中山區
337,2,8,63000040,南京西路12號,新光三越南京西店1館,25.051844877804836,121.51847317537715,中山區
338,2,8,63000040,南京西路14號,誠品生活股份有限公司,25.0523863778045,121.51825867537723,中山區
339,2,7,63000040,遼寧街139號,安婷機械式停車場俠隱場,25.05233677780445,121.53959357537704,中山區
340,2,5,63000040,新生北路2段101巷2號,中山老人住宅暨服務中心,25.057138977801444,121.52582007537733,中山區
341,2,5,63000040,松江路90巷3號4、5、6樓,私立長安、平安、長育康復之家,25.050715977805574,121.529512575377,中山區
342,2,6,63000040,民權西路72號,捷運淡水線（民權西路站）,25.06228807779814,121.51707357537751,中山區
343,2,6,63000040,南京西路16號,捷運淡水線中山站,25.052691477804295,121.5164937753772,中山區
344,2,6,63000040,民權東路1段71號,捷運中山國小站,25.0628944777977,121.52463187537741,中山區
345,2,6,63000040,松江路126號B1,捷運松山新蘆線松江南京站,25.05267347780431,121.53021957537705,中山區
346,2,6,63000040,松江路316號,捷運行天宮站,25.059103277800187,121.53063407537738,中山區
347,2,5,63000040,八德路2段251號2樓,臺北市私立法泉老人養護所,25.04701977780804,121.53872867537707,中山區
348,2,1,63000040,農安街2巷內,晴光市場,25.064728977796438,121.52100472537751,中山區
349,2,4,63000040,民權東路3段46號,時代金融大樓,25.062133077798116,121.53906897537735,中山區
350,2,5,63000040,中山北路2段92號,馬偕醫院,25.058519477800537,121.51965597537728,中山區
351,2,5,63000040,林森北路530號               ,慢性病防治院    ,25.06350907779731,121.52287497537749,中山區
352,2,8,63000040,八德路2段306號,大潤發中崙店,25.04639247780835,121.54004377537693,松山區
353,2,8,63000040,敬業三路20號,美麗華百樂園,25.08350127778435,121.55494077537816,中山區
354,2,5,63000040,敬業三路160號,博愛發展中心,25.079579877786863,121.55432577537799,中山區
355,2,9,63000040,復興北路穿越松山機場地下道(民族東路至濱江街段),復興北路地下道,25.063386177797387,121.54916307537754,松山區
356,2,6,63000040,大直街1號,捷運內湖線大直站,25.080344977786357,121.544394075378,中山區
357,2,9,63000040,北安路798號,捷運內湖線劍南路站,25.084854477783413,121.55306777537822,中山區
358,2,5,63000040,林森北路561號,中華、涵予康復之家,25.064475877796585,121.52321897537747,中山區
359,2,9,63000040,南京東路2段3號,錢櫃KTV南京店,25.052371277804465,121.52557037537701,中山區
360,2,9,63000040,松江路199號,錢櫃KTV松江店,25.056890777801645,121.53079017537725,中山區
361,2,9,63000040,林森北路312號,錢櫃KTV林森店,25.056434277801884,121.52260507537723,中山區
362,2,9,63000040,錦州街15號,中山園山園大廈,25.060428677799248,121.52184447537739,中山區
363,2,5,63000040,龍江路15號4-7樓,臺北市社會局朱崙老人公寓,25.047629277807562,121.537911775377,中山區
364,2,5,63000040,長安東路1段63號4樓,私立龍江老人養護所,25.048680377806843,121.524574475377,中山區
365,2,5,63000040,民生西路30號2樓,私立松青園老人養護所,25.057660877801087,121.51922107537723,中山區
366,2,5,63000040,民族東路512巷14號,群仁、仁群養護所,25.06737987779476,121.53918807537758,中山區
367,2,5,63000040,松江路380號,私立福成、福喜老人長期照顧中心,25.060520577799267,121.53078887537744,中山區
368,2,5,63000040,錦州街4巷1號2樓,松湛園養護所,25.058821777800322,121.52159577537736,中山區
369,2,5,63000040,中山北路2段96巷19號3樓,私立晨欣老人長期照顧中心,25.059885877799587,121.51932857537737,中山區
370,2,6,63000040,南京東路3段235號B1,捷運松山線南京復興站,25.05232887780459,121.54125747537721,中山區
371,2,4,63000040,植福路286巷26號,西華富邦,25.08112047778589,121.55702877537809,中山區
372,2,4,63000040,樂群二路199號,萬豪酒店,25.080428877786314,121.5567244753779,中山區
373,2,4,63000040,樂群二路55號,美福國際大飯店,25.08085337778612,121.55088257537811,中山區
374,2,9,63000040,中山北路4段1巷1號,圓山飯店,25.075687577789306,121.5234749753779,中山區
375,2,2,63000040,濱江街7號水門至松江路,濱江街一帶(7號水門以西至松江路),25.065504444732323,121.52284585387233,中山區
376,2,6,63000040,南京西路16號B1,中山地下街,25.05256007780433,121.51780917537714,中山區
377,2,8,63000040,南京西路15號,新光三越南京西店3館,25.052827977804213,121.51817137537702,中山區
378,2,9,63000040,林森北路536號,歐夏蕾大廈,25.06377687779713,121.52292717537749,中山區
379,2,9,63000040,濱江街309號B2、4、6樓,摩爾空間個人倉庫(復北濱江店),25.01973673645995,121.3849317538406,松山區
380,2,9,63000040,八德路二段260號11樓,收多易迷你倉庫(中山店),25.04619917780846,121.538450375377,中山區
381,2,9,63000040,南京東路2段6號B1,收多易迷你倉庫（南京店）,25.05182217780474,121.52552217537696,中山區
382,2,9,63000040,建國北路2段139號B1,易力倉迷你倉庫（建國店）,25.060913577799013,121.53478467537747,中山區
383,2,9,63000040,新生北路2段108號2樓,迷你倉(中山店),25.059996377799564,121.52459717537735,中山區
384,2,9,63000040,中山北路3段25號B1,收納先生迷你倉,25.06547637779597,121.52017697537755,中山區
385,2,9,63000040,民權東路2段146號3樓,俬儲空間,25.062231177798097,121.53180377537733,中山區
386,2,5,63000040,長安東路1段63號3樓,南港康復之家,25.056852594821954,121.51412575386779,中山區
387,2,5,63000040,長安東路1段63號5樓,永芯康復之家,25.048684877806938,121.52476137537705,中山區
388,2,5,63000040,長安東路1段63號6樓,弘光康復之家,25.048684877806938,121.52476137537705,中山區
389,2,4,63000040,八德路2段100號,華威八方公寓大廈,25.045761977808827,121.53350367537692,中山區
390,2,4,63000040,林森北路349號,忠泰味社區,25.05688707780158,121.5232451753773,中山區
391,2,4,63000040,新生北路2段7號,台北1號院社區,25.052759177804177,121.52531557537718,中山區
392,2,4,63000040,南京東路3段166號,宏盛國際金融中心,25.05167127780495,121.53878107537717,中山區
393,2,4,63000040,南京東路1段106號,頂高豪景大廈,25.051895977804765,121.52380107537702,中山區
394,2,4,63000040,中山北路1段109號,醇建築大廈,25.051047777805284,121.51993337537712,中山區
395,2,9,63000040,復興北路376號,捷運中山國中站,25.060831177798992,121.54146807537734,中山區
396,2,9,63000040,酒泉街9之1號,捷運圓山站,25.07130817779219,121.51751977537761,大同區
397,2,8,63000040,北安路780號,美麗新廣場,25.084867877783456,121.55123747537812,中山區
398,2,4,63000040,松江路236號,松江1號院,25.05910017780012,121.53030827537745,中山區
399,2,7,63000040,中山北路三段2-1號,永固便利停車股份有限公司,25.063875777796937,121.51905547537741,中山區
400,2,7,63000040,市民大道三段65號,台灣聯通停車塔-北科大場,25.045112777809177,121.53299547537678,中山區
401,2,7,63000040,松江路126、128號停車塔,台灣聯通停車塔-將捷一場,25.05259652780438,121.52978467537719,中山區
402,2,7,63000040,林森北路359號,台灣聯通停車塔-華泰王子場 ,25.057313577801274,121.52306327537728,中山區
403,2,7,63000040,林森北路308號,千里亭停車塔,25.056174977802016,121.52273407537716,中山區
404,2,7,63000040,林森北路125號,嘟嘟房-林森2站,25.050943277805338,121.52267687537702,中山區
405,2,4,63000040,南京東路2段23號,德運京鼎大樓,25.05230087780453,121.52632497537714,中山區
406,2,8,63000040,樂群三路200號,忠泰樂生活,25.082744777784743,121.55465647537808,中山區
407,2,4,63000040,民生東路3段6號,臺北國泰萬怡酒店,25.05726877780136,121.53509357537726,中山區
408,2,5,63000040,民生西路16號,私立長德康復之家,25.057716377800972,121.51957307537735,中山區
409,2,5,63000040,建國北路3段42號12樓,私立采虹康復之家,25.06432397779674,121.53398787537743,中山區
410,2,5,63000040,南京東路3段91號3樓,財團法人陽光社會福利基金會,25.05218967780455,121.53650587537706,中山區
411,2,9,63000040,敬業三路20號6~9樓,美麗華大直影城,25.08329057778446,121.55488137537806,中山區
412,2,9,63000040,北安路780號1、B2樓,大直皇家影城,25.084989877783375,121.55114947537821,中山區
413,2,9,63000040,南京東路2段96號B1樓,雅士達娛樂舞場,25.051855077804785,121.52724937537704,中山區
414,2,9,63000040,民生東路1段54號B1樓,富驛酒店,25.054885679351724,121.51825388059584,松山區
415,2,9,63000040,民權東路2段41號,亞都麗緻大飯店股份有限公司,25.062823777797718,121.5273713753775,中山區
416,2,9,63000040,天祥路213號13樓,優爾空間個人倉庫(大同店),25.06388297779699,121.5184132753775,中山區
417,2,9,63000040,民生東路2段119號,收多易迷你倉庫(民生松江店),25.058118777800733,121.52922577537726,中山區
418,2,5,63000040,臺北市中山區伊通街28號,劉秀娥長照社團法人附設臺北市私立宜恩住宿長照機構,25.050739177805387,121.53205997537707,中山區
419,2,1,63000060,迪化街2段1至85號,磚木造建築物,25.064018677796945,121.50686327537747,大同區
420,2,1,63000060,迪化街2段99至155號,磚木造建築物,25.066010277795602,121.50690177537756,大同區
421,2,7,63000060,重慶北路3段139號,愛馬屋大同場機械式密閉停車塔,25.06822187779422,121.51139497537754,大同區
422,2,9,63000060,延平北路4段259號,大同變電所,25.078676977787378,121.51066287537793,大同區
423,2,9,63000060,民權西路184巷33至59之1號,集合住宅,25.061631977798495,121.5120810753773,大同區
424,2,7,63000060,大龍街136號,揚雅立體停車塔,25.067430377794718,121.51325837537767,大同區
425,2,4,63000060,承德路1段21號,京王大樓,25.01973673645995,121.3849317538406,大同區
426,2,4,63000060,華亭街1號,長安雋大樓,25.052216477804585,121.51086157537716,大同區
427,1,9,63000110,延平北路8段244號1至3樓,延平北路8段244號蝸居處所,25.103657077771253,121.48439547537868,士林區
428,2,9,63000110,中山北路7段190巷1號至139號,集合住宅,25.01973673645995,121.3849317538406,士林區
429,1,9,63000110,士東路2巷3號至23號,集合住宅,25.110205861068025,121.52482794282292,士林區
430,2,9,63000110,仰德大道1段6巷2至88號,集合住宅,25.09898297777427,121.53750607537867,士林區
431,2,5,63000110,雨聲街105號,臺北市立聯合醫院陽明院區,25.105136877770306,121.5293162753788,士林區
432,2,2,63000110,延平北路7段106巷114弄口至堤防邊,集合住宅,25.05283586760554,121.44714100198955,大同區
433,1,2,63000110,延平北路7段101巷2號至57號,集合住宅,25.073582178577066,121.48338073063489,士林區
434,1,2,63000110,延平北路7段251號,陽明山聯合煤氣分裝場股份有限公司,25.102509877772082,121.48368487537871,士林區
435,1,9,63000110,大東路、大南路、大西路、大北路,士林夜市,25.089791627780382,121.52207367537835,士林區
436,2,9,63000110,菁山路99巷16號,民營學生宿舍,25.14378257774541,121.5515467753801,士林區
437,2,9,63000110,建業路22號    ,民營學生宿舍,23.82644262330295,112.1644562158889,士林區
438,1,9,63000110,仰德大道三段106巷20號,民營學生宿舍,25.123203377758713,121.55050447537944,士林區
439,1,9,63000110,菁山路90號-100號,陽明山泉,25.13949387774817,121.54845207537988,士林區
440,1,8,63000110,天母東路68號,新光三越百貨天母分公司,25.117831477762092,121.53130317537928,士林區
441,2,9,63000110,中山北路6段186巷2號至43號,集合住宅,25.107747894295162,121.51583035389429,士林區
442,1,5,63000110,仰德大道2段2巷50號,至善老人安養中心,25.10190197777246,121.54067227537874,士林區
443,2,9,63000110,承德路4段40巷、通河街323巷、通河街325巷等,劍潭整宅,25.083036211138193,121.51524439281911,士林區
444,2,5,63000120,關渡路60號,精英國際老人長期照護中心,25.119519977761044,121.46621807537926,北投區
445,1,9,63000120,石仙路1至24號,集合住宅,25.141875777746648,121.48665727538003,北投區
446,2,9,63000120,溫泉路139號,泉之鄉大廈,25.139960477747792,121.50946237537988,北投區
